{
  "metadata": {
    "title": "Hong Kong Weather Station Catalog for Dragon Worlds HK 2027",
    "description": "Comprehensive catalog of Hong Kong weather, wave, and tide monitoring stations with explicit lat/lon coordinates",
    "focus_area": "Nine Pins Racing Area (22.263째N, 114.326째E)",
    "coordinate_system": "WGS84 decimal degrees",
    "validation_bounds": {
      "latitude": { "min": 21.9, "max": 22.6 },
      "longitude": { "min": 113.8, "max": 114.4 }
    },
    "created": "2024-12-19",
    "source_priority": [
      "Hong Kong Observatory official stations",
      "HKO Weather Station Climate listings",
      "data.gov.hk Network of Weather Stations",
      "HKO tide gauge network"
    ]
  },
  "stations": [
    {
      "id": "HKO-CLK",
      "code": "VHHH",
      "name": "Chek Lap Kok Airport",
      "type": "automatic_weather_station",
      "owner": "HKO",
      "lat": 22.3081,
      "lon": 113.9186,
      "elevationMeters": 6,
      "notes": "Primary synoptic station since April 2000, Hong Kong International Airport",
      "sourceUrl": "https://www.hko.gov.hk/en/cis/stn.htm",
      "verified": true,
      "priority": "high"
    },
    {
      "id": "HKO-HQ",
      "code": "HKO",
      "name": "Hong Kong Observatory Headquarters",
      "type": "automatic_weather_station",
      "owner": "HKO",
      "lat": 22.302219,
      "lon": 114.174637,
      "elevationMeters": 32,
      "notes": "Observatory headquarters, Tsim Sha Tsui, reference station 1884-1992",
      "sourceUrl": "https://www.hko.gov.hk/en/cis/stn.htm",
      "verified": true,
      "priority": "high"
    },
    {
      "id": "HKO-TSY",
      "code": "TSY",
      "name": "Tsing Yi",
      "type": "automatic_weather_station",
      "owner": "HKO",
      "lat": 22.35,
      "lon": 114.1,
      "elevationMeters": null,
      "notes": "Shell Oil Depot marine weather station",
      "sourceUrl": "existing windStationService",
      "verified": true,
      "priority": "high"
    },
    {
      "id": "HKO-KT",
      "code": "KTK",
      "name": "Kai Tak",
      "type": "automatic_weather_station",
      "owner": "HKO",
      "lat": 22.3167,
      "lon": 114.1833,
      "elevationMeters": null,
      "notes": "Former airport location, urban weather station",
      "sourceUrl": "existing windStationService",
      "verified": true,
      "priority": "medium"
    },
    {
      "id": "HKO-TKL",
      "code": "TKL",
      "name": "Ta Kwu Ling",
      "type": "automatic_weather_station",
      "owner": "HKO",
      "lat": 22.55,
      "lon": 114.2167,
      "elevationMeters": null,
      "notes": "Northern New Territories rural weather station",
      "sourceUrl": "existing windStationService",
      "verified": true,
      "priority": "medium"
    },
    {
      "id": "HKO-WP",
      "code": "WLP",
      "name": "Wetland Park",
      "type": "automatic_weather_station",
      "owner": "HKO",
      "lat": 22.4667,
      "lon": 114.0167,
      "elevationMeters": null,
      "notes": "Tin Shui Wai wetland area weather station",
      "sourceUrl": "existing windStationService",
      "verified": true,
      "priority": "medium"
    },
    {
      "id": "HKO-KP",
      "code": "KP",
      "name": "King's Park",
      "type": "automatic_weather_station",
      "owner": "HKO",
      "lat": 22.2958,
      "lon": 114.1722,
      "elevationMeters": null,
      "notes": "Tsim Sha Tsui urban weather station, reference station 1992-2000",
      "sourceUrl": "existing windStationService",
      "verified": true,
      "priority": "high"
    },
    {
      "id": "HKO-TST",
      "code": "TST",
      "name": "Tsim Sha Tsui Harbor",
      "type": "automatic_weather_station",
      "owner": "HKO",
      "lat": 22.3,
      "lon": 114.1667,
      "elevationMeters": null,
      "notes": "Harbor weather station",
      "sourceUrl": "existing windStationService",
      "verified": true,
      "priority": "medium"
    },
    {
      "id": "HKO-CEN",
      "code": "CEN",
      "name": "Central Urban",
      "type": "automatic_weather_station",
      "owner": "HKO",
      "lat": 22.2833,
      "lon": 114.15,
      "elevationMeters": null,
      "notes": "Central district urban weather station",
      "sourceUrl": "existing windStationService",
      "verified": true,
      "priority": "medium"
    },
    {
      "id": "HKO-WAG",
      "code": "WGL",
      "name": "Waglan Island",
      "type": "automatic_weather_station",
      "owner": "HKO",
      "lat": 22.1833,
      "lon": 114.3,
      "elevationMeters": null,
      "notes": "Marine weather station, important for racing area conditions",
      "sourceUrl": "existing windStationService",
      "verified": true,
      "priority": "high"
    },
    {
      "id": "HKO-SC",
      "code": "SC",
      "name": "Sha Chau",
      "type": "automatic_weather_station",
      "owner": "HKO",
      "lat": 22.35,
      "lon": 113.9,
      "elevationMeters": null,
      "notes": "Marine weather station",
      "sourceUrl": "existing windStationService",
      "verified": true,
      "priority": "medium"
    },
    {
      "id": "HKO-TMS",
      "code": "TMS",
      "name": "Tai Mo Shan",
      "type": "automatic_weather_station",
      "owner": "HKO",
      "lat": 22.4,
      "lon": 114.1167,
      "elevationMeters": 955,
      "notes": "Highest weather station in Hong Kong",
      "sourceUrl": "existing windStationService",
      "verified": true,
      "priority": "medium"
    },
    {
      "id": "MARINE-VH-C",
      "code": "VH-C",
      "name": "Victoria Harbour Central",
      "type": "weather_buoy",
      "owner": "HKO",
      "lat": 22.285,
      "lon": 114.165,
      "elevationMeters": 0,
      "notes": "Primary marine monitoring station for western sailing areas",
      "sourceUrl": "existing windStationService",
      "verified": true,
      "priority": "high"
    },
    {
      "id": "MARINE-EW",
      "code": "EW",
      "name": "Eastern Waters",
      "type": "weather_buoy",
      "owner": "HKO",
      "lat": 22.29,
      "lon": 114.29,
      "elevationMeters": 0,
      "notes": "Eastern marine area covering Clearwater Bay and Nine Pins racing waters",
      "sourceUrl": "existing windStationService",
      "verified": true,
      "priority": "high"
    },
    {
      "id": "MARINE-NW",
      "code": "NW",
      "name": "Northern Waters",
      "type": "weather_buoy",
      "owner": "HKO",
      "lat": 22.32,
      "lon": 114.22,
      "elevationMeters": 0,
      "notes": "Northern approaches and Lei Yue Mun channel coverage",
      "sourceUrl": "existing windStationService",
      "verified": true,
      "priority": "medium"
    },
    {
      "id": "RACING-NP",
      "code": "NP01",
      "name": "Nine Pins Racing Area",
      "type": "weather_buoy",
      "owner": "HKO",
      "lat": 22.26299,
      "lon": 114.32559,
      "elevationMeters": 0,
      "notes": "PRIMARY racing area weather station for Dragon Worlds HK 2027",
      "sourceUrl": "constants/raceCoordinates",
      "verified": true,
      "priority": "critical"
    },
    {
      "id": "TIDE-VH-C",
      "code": "VH-C",
      "name": "Victoria Harbour Central",
      "type": "tide_gauge",
      "owner": "HKO",
      "lat": 22.289,
      "lon": 114.172,
      "elevationMeters": 0,
      "notes": "Central harbor tide monitoring",
      "sourceUrl": "existing tideDataService",
      "verified": true,
      "priority": "high"
    },
    {
      "id": "TIDE-VH-E",
      "code": "VH-E",
      "name": "Victoria Harbour East",
      "type": "tide_gauge",
      "owner": "HKO",
      "lat": 22.284,
      "lon": 114.188,
      "elevationMeters": 0,
      "notes": "Eastern harbor tide monitoring",
      "sourceUrl": "existing tideDataService",
      "verified": true,
      "priority": "high"
    },
    {
      "id": "TIDE-QB",
      "code": "QB",
      "name": "Quarry Bay",
      "type": "tide_gauge",
      "owner": "HKO",
      "lat": 22.282721,
      "lon": 114.212303,
      "elevationMeters": 0,
      "notes": "Official HKO tide gauge station with real-time data",
      "sourceUrl": "web research + PSMSL database",
      "verified": true,
      "priority": "high"
    },
    {
      "id": "TIDE-TPK",
      "code": "TPK",
      "name": "Tai Po Kau",
      "type": "tide_gauge",
      "owner": "HKO",
      "lat": 22.43,
      "lon": 114.22,
      "elevationMeters": 0,
      "notes": "Tolo Harbour tide gauge, reconstructed September 2024",
      "sourceUrl": "HKO press release + existing tideDataService",
      "verified": true,
      "priority": "high"
    },
    {
      "id": "TIDE-CB-1",
      "code": "CB-1",
      "name": "Clearwater Bay North",
      "type": "tide_gauge",
      "owner": "HKO",
      "lat": 22.28,
      "lon": 114.3,
      "elevationMeters": 0,
      "notes": "Eastern coastal tide monitoring",
      "sourceUrl": "existing tideDataService",
      "verified": true,
      "priority": "high"
    },
    {
      "id": "TIDE-CB-2",
      "code": "CB-2",
      "name": "Clearwater Bay South",
      "type": "tide_gauge",
      "owner": "HKO",
      "lat": 22.26,
      "lon": 114.305,
      "elevationMeters": 0,
      "notes": "Eastern coastal tide monitoring near racing area",
      "sourceUrl": "existing tideDataService",
      "verified": true,
      "priority": "high"
    },
    {
      "id": "WAVE-VH01",
      "code": "VH01",
      "name": "Victoria Harbour Central",
      "type": "weather_buoy",
      "owner": "HKO",
      "lat": 22.285,
      "lon": 114.165,
      "elevationMeters": 0,
      "notes": "Primary harbor wave monitoring station",
      "sourceUrl": "existing hkWaveStations",
      "verified": true,
      "priority": "high"
    },
    {
      "id": "WAVE-CB01",
      "code": "CB01",
      "name": "Clearwater Bay Marina",
      "type": "weather_buoy",
      "owner": "HKO",
      "lat": 22.29,
      "lon": 114.29,
      "elevationMeters": 0,
      "notes": "Eastern coastal wave monitoring",
      "sourceUrl": "existing hkWaveStations",
      "verified": true,
      "priority": "high"
    },
    {
      "id": "WAVE-NP01",
      "code": "NP01",
      "name": "Nine Pins Racing Area",
      "type": "weather_buoy",
      "owner": "HKO",
      "lat": 22.26299,
      "lon": 114.32559,
      "elevationMeters": 0,
      "notes": "PRIMARY racing area wave conditions monitoring",
      "sourceUrl": "constants/raceCoordinates + existing hkWaveStations",
      "verified": true,
      "priority": "critical"
    },
    {
      "id": "WAVE-RB01",
      "code": "RB01",
      "name": "Repulse Bay Beach",
      "type": "weather_buoy",
      "owner": "HKO",
      "lat": 22.24,
      "lon": 114.195,
      "elevationMeters": 0,
      "notes": "Southern coastal wave monitoring",
      "sourceUrl": "existing hkWaveStations",
      "verified": true,
      "priority": "medium"
    },
    {
      "id": "WAVE-SB01",
      "code": "SB01",
      "name": "Stanley Bay",
      "type": "weather_buoy",
      "owner": "HKO",
      "lat": 22.22,
      "lon": 114.21,
      "elevationMeters": 0,
      "notes": "Eastern bay wave monitoring",
      "sourceUrl": "existing hkWaveStations",
      "verified": true,
      "priority": "medium"
    },
    {
      "id": "WAVE-AB01",
      "code": "AB01",
      "name": "Aberdeen Harbor",
      "type": "weather_buoy",
      "owner": "HKO",
      "lat": 22.25,
      "lon": 114.155,
      "elevationMeters": 0,
      "notes": "Western harbor wave monitoring",
      "sourceUrl": "existing hkWaveStations",
      "verified": true,
      "priority": "medium"
    }
  ],
  "summary": {
    "total_stations": 26,
    "by_type": {
      "automatic_weather_station": 12,
      "weather_buoy": 8,
      "tide_gauge": 6
    },
    "by_priority": {
      "critical": 2,
      "high": 16,
      "medium": 8
    },
    "coordinate_validation": {
      "all_within_bounds": true,
      "min_lat": 22.1833,
      "max_lat": 22.55,
      "min_lon": 113.9,
      "max_lon": 114.32559
    },
    "nine_pins_coverage": {
      "primary_station": "RACING-NP (22.263째N, 114.326째E)",
      "supporting_stations": ["HKO-WAG", "TIDE-CB-1", "TIDE-CB-2", "WAVE-CB01", "WAVE-NP01"],
      "coverage_radius_km": 15
    }
  }
}